job_id,title,employer,sector,source,salary_min,salary_max,location,latitude,longitude,remote,posted_date,url,confidence,zip
5503202467,Guitar Technician (Luthier) Store 495,Guitar Center,private,adzuna,53972.85,53972.85,"Navasota, Grimes County",30.28956,-96.185703,False,2025-11-19T10:13:16Z,https://www.adzuna.com/details/5503202467?utm_medium=api&utm_source=516145e7,0.22,77382
5552487386,Part- time Veterinarian,Lap of Love,private,adzuna,80816.8,80816.8,"Booth, Fort Bend County",29.575254,-95.644126,False,2025-12-22T19:31:29Z,https://www.adzuna.com/details/5552487386?utm_medium=api&utm_source=516145e7,0.17,77382
5503204508,Guitar Repair Tech - Guitar Center,Guitar Center,private,adzuna,66022.36,66022.36,"Navasota, Grimes County",30.360651,-96.066682,False,2025-11-19T10:13:55Z,https://www.adzuna.com/details/5503204508?utm_medium=api&utm_source=516145e7,0.29,77382
5503203264,Retail Guitar Repair Tech,Guitar Center,private,adzuna,66351.03,66351.03,"Huntsville, Walker County",30.72338,-95.55053,False,2025-11-19T10:13:32Z,https://www.adzuna.com/details/5503203264?utm_medium=api&utm_source=516145e7,0.28,77382
5473683226,Psychiatrist,Talkiatry,private,adzuna,156939.9,156939.9,"Cedar Point, Harris County",29.653592,-95.147138,False,2025-10-31T21:01:49Z,https://www.adzuna.com/details/5473683226?utm_medium=api&utm_source=516145e7,0.16,77382
5503203679,Guitar Technician (Luthier) Store 495,Guitar Center,private,adzuna,61425.74,61425.74,"Dobbin, Montgomery County",30.346746,-95.789248,False,2025-11-19T10:13:40Z,https://www.adzuna.com/details/5503203679?utm_medium=api&utm_source=516145e7,0.48,77382
5503205147,Luthier - Guitar Center,Guitar Center,private,adzuna,50822.09,50822.09,"Phelps, Walker County",30.693259,-95.540956,False,2025-11-19T10:14:08Z,https://www.adzuna.com/details/5503205147?utm_medium=api&utm_source=516145e7,0.3,77382
5503205083,Luthier - Guitar Center,Guitar Center,private,adzuna,55940.45,55940.45,"Hockley Mine, Harris County",30.078186,-95.812001,False,2025-11-19T10:14:06Z,https://www.adzuna.com/details/5503205083?utm_medium=api&utm_source=516145e7,0.47,77382
5503204349,Retail Guitar Repair Tech,Guitar Center,private,adzuna,67746.72,67746.72,"Hockley Mine, Harris County",30.078186,-95.812001,False,2025-11-19T10:13:52Z,https://www.adzuna.com/details/5503204349?utm_medium=api&utm_source=516145e7,0.47,77382
5572865111,Mobile Veterinarian,Lap of Love,private,adzuna,90609.15,90609.15,"Mission Bend, Fort Bend County",29.6931,-95.6511,False,2026-01-07T19:40:20Z,https://www.adzuna.com/details/5572865111?utm_medium=api&utm_source=516145e7,0.26,77382
5503205232,Guitar Technician - Base Pay  Commissions,Guitar Center,private,adzuna,38045.84,38045.84,"Phelps, Walker County",30.693259,-95.540956,False,2025-11-19T10:14:09Z,https://www.adzuna.com/details/5503205232?utm_medium=api&utm_source=516145e7,0.3,77382
5572865137,Mobile Veterinarian,Lap of Love,private,adzuna,91574.46,91574.46,"Copperfield, Houston",29.9097,-95.6541,False,2026-01-07T19:40:20Z,https://www.adzuna.com/details/5572865137?utm_medium=api&utm_source=516145e7,0.43,77382
5572865110,Mobile Veterinarian,Lap of Love,private,adzuna,96396.29,96396.29,"Fresno, Fort Bend County",29.53015,-95.474353,False,2026-01-07T19:40:20Z,https://www.adzuna.com/details/5572865110?utm_medium=api&utm_source=516145e7,0.14,77382
5503202414,Guitar Technician (Luthier) Store 495,Guitar Center,private,adzuna,58193.06,58193.06,"Kenney, Austin County",30.13212,-96.258676,False,2025-11-19T10:13:16Z,https://www.adzuna.com/details/5503202414?utm_medium=api&utm_source=516145e7,0.17,77382
5503204219,Retail Guitar Repair Tech,Guitar Center,private,adzuna,70249.75,70249.75,"Kenney, Austin County",30.04835,-96.32186,False,2025-11-19T10:13:49Z,https://www.adzuna.com/details/5503204219?utm_medium=api&utm_source=516145e7,0.11,77382
5503202251,Retail Guitar Repair Tech - Base Pay  Commissions,Guitar Center,private,adzuna,55657.94,55657.94,"Stagecoach, Montgomery County",30.20693,-95.75757,False,2025-11-19T10:13:13Z,https://www.adzuna.com/details/5503202251?utm_medium=api&utm_source=516145e7,0.53,77382
5552487465,Part- time Veterinarian,Lap of Love,private,adzuna,77840.18,77840.18,"North Houston, Harris County",29.92794,-95.54628,False,2025-12-22T19:31:30Z,https://www.adzuna.com/details/5552487465?utm_medium=api&utm_source=516145e7,0.47,77382
5503202306,Guitar Technician (Luthier) Store 495,Guitar Center,private,adzuna,74743.25,74743.25,"Montgomery, Montgomery County",30.318618,-95.650845,False,2025-11-19T10:13:14Z,https://www.adzuna.com/details/5503202306?utm_medium=api&utm_source=516145e7,0.57,77382
5503202874,Guitar Repair Tech - Guitar Center,Guitar Center,private,adzuna,73518.17,73518.17,"Anderson, Grimes County",30.512207,-95.994564,False,2025-11-19T10:13:24Z,https://www.adzuna.com/details/5503202874?utm_medium=api&utm_source=516145e7,0.28,77382
5503202768,Guitar Technician - Guitar Center,Guitar Center,private,adzuna,41570.78,41570.78,"Phelps, Walker County",30.693259,-95.540956,False,2025-11-19T10:13:22Z,https://www.adzuna.com/details/5503202768?utm_medium=api&utm_source=516145e7,0.3,77382
5504212195,Guitar Technician,Guitar Center,private,adzuna,47024.81,47024.81,"Kenney, Austin County",30.13212,-96.258676,False,2025-11-19T18:03:48Z,https://www.adzuna.com/details/5504212195?utm_medium=api&utm_source=516145e7,0.17,77382
5503205958,Guitar Technician,Guitar Center,private,adzuna,50561.85,50561.85,"Anderson, Grimes County",30.512207,-95.994564,False,2025-11-19T10:14:25Z,https://www.adzuna.com/details/5503205958?utm_medium=api&utm_source=516145e7,0.28,77382
5503204788,Guitar Technician - Base Pay  Commissions,Guitar Center,private,adzuna,53620.85,53620.85,"Montgomery, Montgomery County",30.318618,-95.650845,False,2025-11-19T10:14:00Z,https://www.adzuna.com/details/5503204788?utm_medium=api&utm_source=516145e7,0.57,77382
5564037261,Mammography Technologist,Simonmed Imaging,private,adzuna,84959.16,84959.16,"Booth, Fort Bend County",29.575254,-95.644126,False,2026-01-01T20:02:56Z,https://www.adzuna.com/details/5564037261?utm_medium=api&utm_source=516145e7,0.17,77382
5503202717,Guitar Repair Tech - Guitar Center,Guitar Center,private,adzuna,72100.4,72100.4,"Bellville, Austin County",29.98968,-96.25404,False,2025-11-19T10:13:21Z,https://www.adzuna.com/details/5503202717?utm_medium=api&utm_source=516145e7,0.15,77382
5503203541,Luthier - Base Pay  Commissions,Guitar Center,private,adzuna,58069.32,58069.32,"Huntsville, Walker County",30.72338,-95.55053,False,2025-11-19T10:13:38Z,https://www.adzuna.com/details/5503203541?utm_medium=api&utm_source=516145e7,0.28,77382
5552487391,Part- time Veterinarian,Lap of Love,private,adzuna,91911.3,91911.3,"Timberlane Acres, Montgomery County",30.104937,-95.258334,False,2025-12-22T19:31:29Z,https://www.adzuna.com/details/5552487391?utm_medium=api&utm_source=516145e7,0.49,77382
5562690673,Director Of Revenue Integration,The Fixated Group,private,adzuna,120000,150000,"Galena Park, Harris County",29.7194,-95.22285,False,2026-01-01T07:57:38Z,https://www.adzuna.com/details/5562690673?utm_medium=api&utm_source=516145e7,0.24,77382
5572865126,Mobile Veterinarian,Lap of Love,private,adzuna,94862.71,94862.71,"Chinatown, Houston",29.70129,-95.53916,False,2026-01-07T19:40:20Z,https://www.adzuna.com/details/5572865126?utm_medium=api&utm_source=516145e7,0.28,77382
5472955984,Psychiatrist,Talkiatry,private,adzuna,172280.47,172280.47,"Trammells, Harris County",29.6403,-95.4359,False,2025-10-31T11:54:56Z,https://www.adzuna.com/details/5472955984?utm_medium=api&utm_source=516145e7,0.22,77382
5552487362,Part- time Veterinarian,Lap of Love,private,adzuna,70958.9,70958.9,"Spring Lakes, Houston",30.07992,-95.41578,False,2025-12-22T19:31:29Z,https://www.adzuna.com/details/5552487362?utm_medium=api&utm_source=516145e7,0.57,77382
5572865099,Mobile Veterinarian,Lap of Love,private,adzuna,113652.91,113652.91,"Oak Ridge North, Montgomery County",30.14232,-95.47218,False,2026-01-07T19:40:19Z,https://www.adzuna.com/details/5572865099?utm_medium=api&utm_source=516145e7,0.63,77382
5503205912,Retail Guitar Repair Tech,Guitar Center,private,adzuna,69685.38,69685.38,"Todd Mission, Grimes County",30.292977,-95.852813,False,2025-11-19T10:14:24Z,https://www.adzuna.com/details/5503205912?utm_medium=api&utm_source=516145e7,0.46,77382
5503202798,Guitar Technician - Base Pay  Commissions,Guitar Center,private,adzuna,43424.69,43424.69,"Kenney, Austin County",30.04835,-96.32186,False,2025-11-19T10:13:22Z,https://www.adzuna.com/details/5503202798?utm_medium=api&utm_source=516145e7,0.11,77382
5572865104,Mobile Veterinarian,Lap of Love,private,adzuna,102582.98,102582.98,"Conroe, Montgomery County",30.312387,-95.449299,False,2026-01-07T19:40:20Z,https://www.adzuna.com/details/5572865104?utm_medium=api&utm_source=516145e7,0.6,77382
5503202915,Guitar Repair Tech - Guitar Center,Guitar Center,private,adzuna,87821.23,87821.23,"Montgomery, Montgomery County",30.318618,-95.650845,False,2025-11-19T10:13:24Z,https://www.adzuna.com/details/5503202915?utm_medium=api&utm_source=516145e7,0.57,77382
5503202489,Guitar Technician,Guitar Center,private,adzuna,47302.37,47302.37,"Millican, Brazos County",30.46735,-96.20468,False,2025-11-19T10:13:17Z,https://www.adzuna.com/details/5503202489?utm_medium=api&utm_source=516145e7,0.17,77382
5503205572,Retail Guitar Repair Tech,Guitar Center,private,adzuna,69009.42,69009.42,"Prairie View, Waller County",30.090657,-95.993291,False,2025-11-19T10:14:16Z,https://www.adzuna.com/details/5503205572?utm_medium=api&utm_source=516145e7,0.35,77382
5552487340,Part- time Veterinarian,Lap of Love,private,adzuna,77662.37,77662.37,"Crosby, Harris County",29.94426,-95.06622,False,2025-12-22T19:31:28Z,https://www.adzuna.com/details/5552487340?utm_medium=api&utm_source=516145e7,0.3,77382
5503202243,Retail Guitar Repair Tech - Base Pay  Commissions,Guitar Center,private,adzuna,53469.39,53469.39,"Prairie View, Waller County",30.090657,-95.993291,False,2025-11-19T10:13:13Z,https://www.adzuna.com/details/5503202243?utm_medium=api&utm_source=516145e7,0.35,77382
5503202301,Luthier - Base Pay  Commissions,Guitar Center,private,adzuna,51682.36,51682.36,"Bellville, Austin County",29.98968,-96.25404,False,2025-11-19T10:13:14Z,https://www.adzuna.com/details/5503202301?utm_medium=api&utm_source=516145e7,0.15,77382
5503202780,Guitar Technician,Guitar Center,private,adzuna,49386.87,49386.87,"Roans Prairie, Grimes County",30.5737,-95.824132,False,2025-11-19T10:13:22Z,https://www.adzuna.com/details/5503202780?utm_medium=api&utm_source=516145e7,0.33,77382
5572865100,Mobile Veterinarian,Lap of Love,private,adzuna,106522.73,106522.73,"Crestwood, Houston",29.75706,-95.3698,False,2026-01-07T19:40:19Z,https://www.adzuna.com/details/5572865100?utm_medium=api&utm_source=516145e7,0.31,77382
5572865091,Mobile Veterinarian,Lap of Love,private,adzuna,81061.26,81061.26,"Acres Homes, Houston",29.87754,-95.45633,False,2026-01-07T19:40:19Z,https://www.adzuna.com/details/5572865091?utm_medium=api&utm_source=516145e7,0.42,77382
5503203527,Retail Guitar Repair Tech - Base Pay  Commissions,Guitar Center,private,adzuna,51613.61,51613.61,"Hempstead, Waller County",30.095623,-96.059687,False,2025-11-19T10:13:37Z,https://www.adzuna.com/details/5503203527?utm_medium=api&utm_source=516145e7,0.3,77382
5572865131,Mobile Veterinarian,Lap of Love,private,adzuna,95525.89,95525.89,"North Houston, Harris County",29.92794,-95.54628,False,2026-01-07T19:40:20Z,https://www.adzuna.com/details/5572865131?utm_medium=api&utm_source=516145e7,0.47,77382
5569334004,CNC Machinist,LoneStar Fasteners,private,adzuna,37440,54080,"Spring, Harris County",30.055821,-95.382913,False,2026-01-05T20:35:51Z,https://www.adzuna.com/details/5569334004?utm_medium=api&utm_source=516145e7,0.54,77382
5503750496,Retail Guitar Repair Tech - Base Pay  Commissions,Guitar Center,private,adzuna,49132.2,49132.2,"Roans Prairie, Grimes County",30.595139,-95.877956,False,2025-11-19T13:50:55Z,https://www.adzuna.com/details/5503750496?utm_medium=api&utm_source=516145e7,0.29,77382
5503204209,Retail Guitar Repair Tech,Guitar Center,private,adzuna,66614.27,66614.27,"Hempstead, Waller County",30.095623,-96.059687,False,2025-11-19T10:13:49Z,https://www.adzuna.com/details/5503204209?utm_medium=api&utm_source=516145e7,0.3,77382
5552487318,Part- time Veterinarian,Lap of Love,private,adzuna,87789.24,87789.24,"Waller, Harris County",30.089204,-95.922767,False,2025-12-22T19:31:28Z,https://www.adzuna.com/details/5552487318?utm_medium=api&utm_source=516145e7,0.4,77382
5503203049,Guitar Technician - Base Pay  Commissions,Guitar Center,private,adzuna,50440.24,50440.24,"Waller, Harris County",30.089204,-95.922767,False,2025-11-19T10:13:27Z,https://www.adzuna.com/details/5503203049?utm_medium=api&utm_source=516145e7,0.4,77382
5503204325,Guitar Technician (Luthier) Store 495,Guitar Center,private,adzuna,62570.09,62570.09,"Anderson, Grimes County",30.512207,-95.994564,False,2025-11-19T10:13:51Z,https://www.adzuna.com/details/5503204325?utm_medium=api&utm_source=516145e7,0.28,77382
5503203826,Luthier - Base Pay  Commissions,Guitar Center,private,adzuna,51777.53,51777.53,"Bedias, Grimes County",30.75282,-95.9232,False,2025-11-19T10:13:42Z,https://www.adzuna.com/details/5503203826?utm_medium=api&utm_source=516145e7,0.17,77382
5503202501,Guitar Technician - Base Pay  Commissions,Guitar Center,private,adzuna,41014.75,41014.75,"Huntsville, Walker County",30.72338,-95.55053,False,2025-11-19T10:13:17Z,https://www.adzuna.com/details/5503202501?utm_medium=api&utm_source=516145e7,0.28,77382
5569286719,Field Sales Representative,TruGreen,private,adzuna,51843.39,51843.39,"Golden Acres, Harris County",29.649998,-95.18467,False,2026-01-05T20:03:17Z,https://www.adzuna.com/details/5569286719?utm_medium=api&utm_source=516145e7,0.18,77382
5569286798,Field Sales Representative,TruGreen,private,adzuna,41605.68,41605.68,"Lomax, Harris County",29.659435,-95.06092,False,2026-01-05T20:03:19Z,https://www.adzuna.com/details/5569286798?utm_medium=api&utm_source=516145e7,0.13,77382
5503205554,Retail Guitar Repair Tech,Guitar Center,private,adzuna,71216.18,71216.18,"Bellville, Austin County",29.98968,-96.25404,False,2025-11-19T10:14:16Z,https://www.adzuna.com/details/5503205554?utm_medium=api&utm_source=516145e7,0.15,77382
5503205550,Luthier - Base Pay  Commissions,Guitar Center,private,adzuna,49301.41,49301.41,"Millican, Brazos County",30.46735,-96.20468,False,2025-11-19T10:14:16Z,https://www.adzuna.com/details/5503205550?utm_medium=api&utm_source=516145e7,0.17,77382
5572865080,Mobile Veterinarian,Lap of Love,private,adzuna,103314.02,103314.02,"Pattison, Waller County",29.812422,-95.97619,False,2026-01-07T19:40:19Z,https://www.adzuna.com/details/5572865080?utm_medium=api&utm_source=516145e7,0.24,77382
5563938608,Assistant Managing Partner,Torchy's Tacos,private,adzuna,88119.23,88119.23,"Oak Ridge North, Montgomery County",30.14232,-95.47218,False,2026-01-01T19:39:44Z,https://www.adzuna.com/details/5563938608?utm_medium=api&utm_source=516145e7,0.63,77382
5552487360,Part- time Veterinarian,Lap of Love,private,adzuna,76273.2,76273.2,"Grangerland, Montgomery County",30.231532,-95.366646,False,2025-12-22T19:31:29Z,https://www.adzuna.com/details/5552487360?utm_medium=api&utm_source=516145e7,0.58,77382
5504211733,Luthier - Base Pay  Commissions,Guitar Center,private,adzuna,45457.76,45457.76,"Navasota, Grimes County",30.28956,-96.185703,False,2025-11-19T18:03:36Z,https://www.adzuna.com/details/5504211733?utm_medium=api&utm_source=516145e7,0.22,77382
5503203853,Retail Guitar Repair Tech - Base Pay  Commissions,Guitar Center,private,adzuna,48533.5,48533.5,"Navasota, Grimes County",30.28956,-96.185703,False,2025-11-19T10:13:43Z,https://www.adzuna.com/details/5503203853?utm_medium=api&utm_source=516145e7,0.22,77382
5563935819,Maintenance Supervisor - Lakecrest Village,"Dominium Management Services, LLC",private,adzuna,55698.88,55698.88,"Kohrville, Harris County",30.0234,-95.56848,False,2026-01-01T19:38:29Z,https://www.adzuna.com/details/5563935819?utm_medium=api&utm_source=516145e7,0.54,77382
5572865139,Mobile Veterinarian,Lap of Love,private,adzuna,99178.72,99178.72,"Booth, Fort Bend County",29.575254,-95.644126,False,2026-01-07T19:40:20Z,https://www.adzuna.com/details/5572865139?utm_medium=api&utm_source=516145e7,0.17,77382
5503202529,Guitar Technician,Guitar Center,private,adzuna,50016.89,50016.89,"Stagecoach, Montgomery County",30.20693,-95.75757,False,2025-11-19T10:13:18Z,https://www.adzuna.com/details/5503202529?utm_medium=api&utm_source=516145e7,0.53,77382
5503202432,Guitar Technician - Base Pay  Commissions,Guitar Center,private,adzuna,38720.19,38720.19,"Navasota, Grimes County",30.28956,-96.185703,False,2025-11-19T10:13:16Z,https://www.adzuna.com/details/5503202432?utm_medium=api&utm_source=516145e7,0.22,77382
5503203152,Guitar Technician,Guitar Center,private,adzuna,56816.13,56816.13,"Waller, Harris County",30.089204,-95.922767,False,2025-11-19T10:13:30Z,https://www.adzuna.com/details/5503203152?utm_medium=api&utm_source=516145e7,0.4,77382
5503203355,Guitar Technician,Guitar Center,private,adzuna,45406.63,45406.63,"Navasota, Grimes County",30.360651,-96.066682,False,2025-11-19T10:13:34Z,https://www.adzuna.com/details/5503203355?utm_medium=api&utm_source=516145e7,0.29,77382
5569286899,Field Sales Representative,TruGreen,private,adzuna,41345.42,41345.42,"La Porte, Harris County",29.665136,-95.005031,False,2026-01-05T20:03:21Z,https://www.adzuna.com/details/5569286899?utm_medium=api&utm_source=516145e7,0.11,77382
5552487419,Part- time Veterinarian,Lap of Love,private,adzuna,73833.87,73833.87,"Mission Bend, Fort Bend County",29.6931,-95.6511,False,2025-12-22T19:31:29Z,https://www.adzuna.com/details/5552487419?utm_medium=api&utm_source=516145e7,0.26,77382
5572865124,Mobile Veterinarian,Lap of Love,private,adzuna,80079.28,80079.28,"Linkwood, Houston",29.688081,-95.432927,False,2026-01-07T19:40:20Z,https://www.adzuna.com/details/5572865124?utm_medium=api&utm_source=516145e7,0.26,77382
5503203449,Guitar Technician - Guitar Center,Guitar Center,private,adzuna,48518.04,48518.04,"Stagecoach, Montgomery County",30.20693,-95.75757,False,2025-11-19T10:13:35Z,https://www.adzuna.com/details/5503203449?utm_medium=api&utm_source=516145e7,0.53,77382
5503203472,Retail Guitar Repair Tech - Base Pay  Commissions,Guitar Center,private,adzuna,67210.73,67210.73,"Montgomery, Montgomery County",30.318618,-95.650845,False,2025-11-19T10:13:36Z,https://www.adzuna.com/details/5503203472?utm_medium=api&utm_source=516145e7,0.57,77382
5503203107,Retail Guitar Repair Tech,Guitar Center,private,adzuna,61548.12,61548.12,"Phelps, Walker County",30.693259,-95.540956,False,2025-11-19T10:13:29Z,https://www.adzuna.com/details/5503203107?utm_medium=api&utm_source=516145e7,0.3,77382
5503203768,Guitar Technician (Luthier) Store 495,Guitar Center,private,adzuna,61476.43,61476.43,"Bedias, Grimes County",30.75282,-95.9232,False,2025-11-19T10:13:41Z,https://www.adzuna.com/details/5503203768?utm_medium=api&utm_source=516145e7,0.17,77382
5552487371,Part- time Veterinarian,Lap of Love,private,adzuna,68895.59,68895.59,"Panther Creek, Montgomery County",30.19892,-95.546683,False,2025-12-22T19:31:29Z,https://www.adzuna.com/details/5552487371?utm_medium=api&utm_source=516145e7,0.68,77382
5572865128,Mobile Veterinarian,Lap of Love,private,adzuna,100192.03,100192.03,"New Caney, Montgomery County",30.13446,-95.1807,False,2026-01-07T19:40:20Z,https://www.adzuna.com/details/5572865128?utm_medium=api&utm_source=516145e7,0.44,77382
5572865117,Mobile Veterinarian,Lap of Love,private,adzuna,101919.59,101919.59,"Morningside Place, Houston",29.552991,-95.357622,False,2026-01-07T19:40:20Z,https://www.adzuna.com/details/5572865117?utm_medium=api&utm_source=516145e7,0.14,77382
5503202792,Luthier - Base Pay  Commissions,Guitar Center,private,adzuna,51734.83,51734.83,"Dobbin, Montgomery County",30.346746,-95.789248,False,2025-11-19T10:13:22Z,https://www.adzuna.com/details/5503202792?utm_medium=api&utm_source=516145e7,0.48,77382
5562471805,Registered Nurse (RN),"CHI St. Joseph Health Rehabilitation Hospital, an affiliate of Encompass Health",private,adzuna,22801.51,22801.51,"Stagecoach, Montgomery County",30.20949,-95.75602,False,2026-01-01T05:47:27Z,https://www.adzuna.com/land/ad/5562471805?se=Skupm6Xs8BGfdvE-B1kNjw&utm_medium=api&utm_source=516145e7&v=6E0B46CA795E8D0BF508B5C9ED141F32D70085E5,0.53,77382
5428702062,"Residential Youth Caregiver - Relocation to Hershey, PA Required",Milton Hershey School,private,adzuna,66401.98,66401.98,"Huntsville, Walker County",30.72338,-95.55053,False,2025-10-03T01:06:37Z,https://www.adzuna.com/land/ad/5428702062?se=Skupm6Xs8BGfdvE-B1kNjw&utm_medium=api&utm_source=516145e7&v=83AAEBB3B1F49D09077F3605640D2A51C93E1083,0.28,77382
5562485226,"Physical Therapist, Full Time - Days",Encompass Health Rehabilitation Hospital of Houston at The Medical Center,private,adzuna,82968.45,82968.45,"Linkwood, Houston",29.688081,-95.432927,False,2026-01-01T05:53:32Z,https://www.adzuna.com/land/ad/5562485226?se=Skupm6Xs8BGfdvE-B1kNjw&utm_medium=api&utm_source=516145e7&v=6891E0791181F531676C5510D2475B4749CB377F,0.26,77382
5503203194,Guitar Technician,Guitar Center,private,adzuna,46382.46,46382.46,"Hempstead, Waller County",30.095623,-96.059687,False,2025-11-19T10:13:30Z,https://www.adzuna.com/details/5503203194?utm_medium=api&utm_source=516145e7,0.3,77382
5546135574,Registered Nurse Labor and Delivery,HCA Houston Healthcare Kingwood,private,adzuna,90793.05,90793.05,"Kingwood, Houston",30.056236,-95.212877,False,2025-12-17T14:21:19Z,https://www.adzuna.com/land/ad/5546135574?se=Skupm6Xs8BGfdvE-B1kNjw&utm_medium=api&utm_source=516145e7&v=9FA3BD4EA3C15191A146A5CBD5C6427056187712,0.44,77382
5562485215,Physical Therapist Career Opportunity,Encompass Health Rehabilitation Hospital of Houston at The Medical Center,private,adzuna,126233.02,126233.02,"Yellowstone, Houston",29.748793,-95.346553,False,2026-01-01T05:53:32Z,https://www.adzuna.com/land/ad/5562485215?se=Skupm6Xs8BGfdvE-B1kNjw&utm_medium=api&utm_source=516145e7&v=CA85E76F034402DE16EFCDDDDA14438484B35591,0.3,77382
5562471688,"Registered Nurse (RN), Hiring Full-time, Part-time and PRN nights","CHI St. Joseph Health Rehabilitation Hospital, an affiliate of Encompass Health",private,adzuna,32497.92,32497.92,"Dobbin, Montgomery County",30.346746,-95.789248,False,2026-01-01T05:47:26Z,https://www.adzuna.com/land/ad/5562471688?se=Skupm6Xs8BGfdvE-B1kNjw&utm_medium=api&utm_source=516145e7&v=5E11988DED2736B6469DB0DF479FE2A82B6AA35E,0.48,77382
5562485220,"Physical Therapist, Full Time - Days",Encompass Health Rehabilitation Hospital of Houston at The Medical Center,private,adzuna,92416.79,92416.79,"Greenwood, Houston",29.735237,-95.416372,False,2026-01-01T05:53:32Z,https://www.adzuna.com/land/ad/5562485220?se=Skupm6Xs8BGfdvE-B1kNjw&utm_medium=api&utm_source=516145e7&v=8BFE26B26467AE62FB17C00B4E3AD331F925A601,0.3,77382
5562485196,Occupational Therapy Assistant,Encompass Health Rehabilitation Hospital of Houston at The Medical Center,private,adzuna,63642.58,63642.58,"West University Place, Harris County",29.715567,-95.427995,False,2026-01-01T05:53:30Z,https://www.adzuna.com/land/ad/5562485196?se=Skupm6Xs8BGfdvE-B1kNjw&utm_medium=api&utm_source=516145e7&v=420E1B510BA8018388A9A2BD8A2CE4F163CADCD7,0.28,77382
5428702888,"Youth Development Specialist - Relocation to Hershey, PA Required",Milton Hershey School,private,adzuna,61633.99,61633.99,"Arcola, Brazoria County",29.49607,-95.465776,False,2025-10-03T01:06:52Z,https://www.adzuna.com/land/ad/5428702888?se=Skupm6Xs8BGfdvE-B1kNjw&utm_medium=api&utm_source=516145e7&v=F883C07B125A448D70A4A25A4C41AB9C1F3D3F57,0.11,77382
5563938614,Assistant Managing Partner,Torchy's Tacos,private,adzuna,85936.05,85936.05,"Klein, Harris County",30.034215,-95.532917,False,2026-01-01T19:39:44Z,https://www.adzuna.com/details/5563938614?utm_medium=api&utm_source=516145e7,0.55,77382
5562485181,Occupational Therapy Assistant,Encompass Health Rehabilitation Hospital of Houston at The Medical Center,private,adzuna,58531.8,58531.8,"Tomball, Harris County",30.097162,-95.616055,False,2026-01-01T05:53:30Z,https://www.adzuna.com/land/ad/5562485181?se=Skupm6Xs8BGfdvE-B1kNjw&utm_medium=api&utm_source=516145e7&v=E3D99590236CDF5EC4E472A3A661031C6461B09B,0.59,77382
5572865154,Mobile Veterinarian,Lap of Love,private,adzuna,85456.07,85456.07,"Crabb, Fort Bend County",29.547323,-95.736734,False,2026-01-07T19:40:21Z,https://www.adzuna.com/details/5572865154?utm_medium=api&utm_source=516145e7,0.13,77382
5562485329,"Physical Therapist, Full Time - Days",Encompass Health Rehabilitation Hospital of Houston at The Medical Center,private,adzuna,183652.56,183652.56,"Magnolia Park, Houston",29.742027,-95.308478,False,2026-01-01T05:53:34Z,https://www.adzuna.com/land/ad/5562485329?se=Skupm6Xs8BGfdvE-B1kNjw&utm_medium=api&utm_source=516145e7&v=748328DB3B02CE4D0EAF5C843594769D8B9798D8,0.28,77382
5428702497,"House Parents - Relocation to Hershey, PA Required",Milton Hershey School,private,adzuna,64570.74,64570.74,"Navasota, Grimes County",30.387985,-96.087735,False,2025-10-03T01:06:44Z,https://www.adzuna.com/land/ad/5428702497?se=Skupm6Xs8BGfdvE-B1kNjw&utm_medium=api&utm_source=516145e7&v=A3D2D3CF4405E2E9F95B734EA85BC7C5FB76FBD2,0.27,77382
5428701156,"Houseparents - Relocation to Hershey, PA Required",Milton Hershey School,private,adzuna,69852.25,69852.25,"Oak Ridge North, Montgomery County",30.160216,-95.444383,False,2025-10-03T01:06:20Z,https://www.adzuna.com/land/ad/5428701156?se=Skupm6Xs8BGfdvE-B1kNjw&utm_medium=api&utm_source=516145e7&v=8A620D82F09CB3FF2C9641E8E8EE91BB6D0B13E0,0.63,77382
5569389823,Occupational Therapist,Encompass Health Rehabilitation Hospital of Houston at The Medical Center,private,adzuna,107255.35,107255.35,"Sienna Plantation, Fort Bend County",29.486071,-95.507999,False,2026-01-05T22:11:37Z,https://www.adzuna.com/land/ad/5569389823?se=Skupm6Xs8BGfdvE-B1kNjw&utm_medium=api&utm_source=516145e7&v=54C7C39CBEF9F7BE59C34EBCD10687AFB9EE6A5B,0.1,77382
PUBLICNOTICE-DEA-BA2025,PUBLIC NOTICE- DEA Criminal Investigators,Drug Enforcement Administration,federal,usajobs,48854,82938,"Houston, Texas",29.76045,-95.36978,,2025-03-17T00:00:00.0000,https://www.usajobs.gov:443/job/833745400,0.41,77382
req3966,Green & Gold Congressional Aide,House of Representatives,federal,usajobs,55000,67000,"Tomball, Texas",30.101608,-95.5907,,2025-09-10T13:01:18.8330,https://www.usajobs.gov:443/job/845549800,0.7,77382
IHSC-ANM-HTX-O5-S-2026,Clinical Assistant Nurse Manager (O-5 Billet) Supervisory,Immigration and Customs Enforcement,federal,usajobs,1,150000,"Houston, Texas",29.76045,-95.36978,,2025-10-04T00:00:00.0000,https://www.usajobs.gov:443/job/846610600,0.41,77382
IHSC-NM-HTX-O6-S-2026,Clinical Nurse Manager (O-6 Billet) Supervisory,Immigration and Customs Enforcement,federal,usajobs,1,150000,"Houston, Texas",29.76045,-95.36978,,2025-10-04T00:00:00.0000,https://www.usajobs.gov:443/job/846611000,0.41,77382
AGL-ERR-25-2101-96016,Technical Operations (AJW) Airway Transportation Systems Specialist Employee Requested Reassignment,Federal Aviation Administration,federal,usajobs,46366,146571,"Houston, Texas",29.76045,-95.36978,,2025-09-29T00:00:00.0000,https://www.usajobs.gov:443/job/846713900,0.41,77382
SAB-26-Q1-CI,Special Agent,U.S. Secret Service,federal,usajobs,48371,117034,"Houston, Texas",29.76045,-95.36978,,2025-10-01T00:00:00.0000,https://www.usajobs.gov:443/job/847106700,0.41,77382
SAB-SB-26-Q1-STR,Special Agent - Special Agent Talent & Achievement Recruitment (STAR),U.S. Secret Service,federal,usajobs,48371,117034,"Houston, Texas",29.76045,-95.36978,,2025-10-01T00:00:00.0000,https://www.usajobs.gov:443/job/847107800,0.41,77382
DHA-2026-0001,Correctional Officer – Up to 50% Recruitment Incentive – Direct Hire,"Justice, Bureau of Prisons/Federal Prison System",federal,usajobs,51632,98113,"Houston, Texas",29.76045,-95.36978,,2025-10-01T00:00:00.0000,https://www.usajobs.gov:443/job/847129100,0.41,77382
HR-N-2026-0001,Supervisory Correctional Officer (Lieutenant GL-09),"Justice, Bureau of Prisons/Federal Prison System",federal,usajobs,63780,96989,"Houston, Texas",29.76045,-95.36978,,2025-10-01T00:00:00.0000,https://www.usajobs.gov:443/job/847129800,0.41,77382
HR-N-2026-0002,Supervisory Correctional Officer (Lieutenant GS-09/11),"Justice, Bureau of Prisons/Federal Prison System",federal,usajobs,63780,121371,"Houston, Texas",29.76045,-95.36978,,2025-10-01T00:00:00.0000,https://www.usajobs.gov:443/job/847130500,0.41,77382
DHA-2026-0002,Nurse (Registered Nurse) 30% Recruitment Incentive - Direct Hire,"Justice, Bureau of Prisons/Federal Prison System",federal,usajobs,50241,114573,"Houston, Texas",29.76045,-95.36978,,2025-10-01T00:00:00.0000,https://www.usajobs.gov:443/job/847130700,0.41,77382
HR-N-2026-0003,Supervisory Correctional Officer (Lieutenant GS-11),"Justice, Bureau of Prisons/Federal Prison System",federal,usajobs,74678,114413,"Houston, Texas",29.76045,-95.36978,,2025-10-01T00:00:00.0000,https://www.usajobs.gov:443/job/847131300,0.41,77382
BOP-N-2026-0001,Clinical Psychologist (Staff Psychologist) 25% Recruitment Incentive,"Justice, Bureau of Prisons/Federal Prison System",federal,usajobs,74678,145468,"Houston, Texas",29.76045,-95.36978,,2025-10-01T00:00:00.0000,https://www.usajobs.gov:443/job/847131400,0.41,77382
HR-N-2026-0004,Supervisory Correctional Officer (Captain GS-11),"Justice, Bureau of Prisons/Federal Prison System",federal,usajobs,74678,97087,"Houston, Texas",29.76045,-95.36978,,2025-10-01T00:00:00.0000,https://www.usajobs.gov:443/job/847131600,0.41,77382
HR-N-2026-0005,Supervisory Correctional Officer (Captain GS-12),"Justice, Bureau of Prisons/Federal Prison System",federal,usajobs,89508,137128,"Houston, Texas",29.76045,-95.36978,,2025-10-01T00:00:00.0000,https://www.usajobs.gov:443/job/847132200,0.41,77382
HR-N-2026-0006,Supervisory Correctional Officer (Captain GS-13),"Justice, Bureau of Prisons/Federal Prison System",federal,usajobs,106437,172980,"Houston, Texas",29.76045,-95.36978,,2025-10-01T00:00:00.0000,https://www.usajobs.gov:443/job/847133000,0.41,77382
HR-N-2026-0007,Correctional Officer (Senior Officer Specialist GL-05),"Justice, Bureau of Prisons/Federal Prison System",federal,usajobs,51632,80247,"Houston, Texas",29.76045,-95.36978,,2025-10-01T00:00:00.0000,https://www.usajobs.gov:443/job/847133400,0.41,77382
BOP-N-2026-0004,Dentist (Dental Officer),"Justice, Bureau of Prisons/Federal Prison System",federal,usajobs,123077,300000,"Houston, Texas",29.76045,-95.36978,,2025-10-01T00:00:00.0000,https://www.usajobs.gov:443/job/847133500,0.41,77382
HR-N-2026-0008,Correctional Officer (Senior Officer Specialist GL-06),"Justice, Bureau of Prisons/Federal Prison System",federal,usajobs,54443,85561,"Houston, Texas",29.76045,-95.36978,,2025-10-01T00:00:00.0000,https://www.usajobs.gov:443/job/847133600,0.41,77382
BOP-N-2026-0005,Advance Practice Nurse (Mid-Level Practitioner) 30% Recruitment Incentive,"Justice, Bureau of Prisons/Federal Prison System",federal,usajobs,63780,129383,"Houston, Texas",29.76045,-95.36978,,2025-10-01T00:00:00.0000,https://www.usajobs.gov:443/job/847134500,0.41,77382
HR-N-2026-0009,Correctional Officer (Senior Officer Specialist GL-07),"Justice, Bureau of Prisons/Federal Prison System",federal,usajobs,58771,92921,"Houston, Texas",29.76045,-95.36978,,2025-10-01T00:00:00.0000,https://www.usajobs.gov:443/job/847134900,0.41,77382
HR-N-2026-0010,Correctional Officer (Senior Officer Specialist GL-08),"Justice, Bureau of Prisons/Federal Prison System",federal,usajobs,61257,98113,"Houston, Texas",29.76045,-95.36978,,2025-10-01T00:00:00.0000,https://www.usajobs.gov:443/job/847135400,0.41,77382
BOP-N-2026-0006,Physician (Psychiatric Physician),"Justice, Bureau of Prisons/Federal Prison System",federal,usajobs,123077,300000,"Houston, Texas",29.76045,-95.36978,,2025-10-01T00:00:00.0000,https://www.usajobs.gov:443/job/847135600,0.41,77382
BOP-N-2026-0007,Physician (Medical Officer),"Justice, Bureau of Prisons/Federal Prison System",federal,usajobs,123077,300000,"Houston, Texas",29.76045,-95.36978,,2025-10-01T00:00:00.0000,https://www.usajobs.gov:443/job/847136100,0.41,77382
BOP-N-2026-0008,Physician (Clinical Director),"Justice, Bureau of Prisons/Federal Prison System",federal,usajobs,145000,336000,"Houston, Texas",29.76045,-95.36978,,2025-10-01T00:00:00.0000,https://www.usajobs.gov:443/job/847136400,0.41,77382
BOP-N-2026-0009,Physician Assistant (Mid-Level Practitioner) 30% Recruitment Incentive,"Justice, Bureau of Prisons/Federal Prison System",federal,usajobs,57188,129383,"Houston, Texas",29.76045,-95.36978,,2025-10-01T00:00:00.0000,https://www.usajobs.gov:443/job/847137300,0.41,77382
BOP-N-2026-0010,Health Technician (Paramedic),"Justice, Bureau of Prisons/Federal Prison System",federal,usajobs,63780,102887,"Houston, Texas",29.76045,-95.36978,,2025-10-01T00:00:00.0000,https://www.usajobs.gov:443/job/847138700,0.41,77382
BOP-N-2026-0011,Secretary (Unit Secretary),"Justice, Bureau of Prisons/Federal Prison System",federal,usajobs,50241,83257,"Houston, Texas",29.76045,-95.36978,,2025-10-01T00:00:00.0000,https://www.usajobs.gov:443/job/847139100,0.41,77382
CHAP-2026-0001,Chaplain,"Justice, Bureau of Prisons/Federal Prison System",federal,usajobs,63780,145468,"Houston, Texas",29.76045,-95.36978,,2025-10-01T00:00:00.0000,https://www.usajobs.gov:443/job/847144200,0.41,77382
ACIJ-12792917-25-TNN,Supervisory Immigration Judge (Assistant Chief Immigration Judge),Executive Office for Immigration Review,federal,usajobs,159951,207500,"Conroe, Texas",30.31218,-95.45592,,2025-10-01T00:00:00.0000,https://www.usajobs.gov:443/job/847169800,0.7,77382
ACIJ-12792917-25-TNN,Supervisory Immigration Judge (Assistant Chief Immigration Judge),Executive Office for Immigration Review,federal,usajobs,159951,207500,"Houston, Texas",29.76045,-95.36978,,2025-10-01T00:00:00.0000,https://www.usajobs.gov:443/job/847169800,0.41,77382
ACIJ-12792917-25-TNN,Supervisory Immigration Judge (Assistant Chief Immigration Judge),Executive Office for Immigration Review,federal,usajobs,159951,207500,"Houston, Texas",29.76045,-95.36978,,2025-10-01T00:00:00.0000,https://www.usajobs.gov:443/job/847169800,0.41,77382
ACIJ-12792917-25-TNN,Supervisory Immigration Judge (Assistant Chief Immigration Judge),Executive Office for Immigration Review,federal,usajobs,159951,207500,"Houston, Texas",29.76045,-95.36978,,2025-10-01T00:00:00.0000,https://www.usajobs.gov:443/job/847169800,0.41,77382
FAA-FAA-26-PUB NOT-96466,Public Notice for Air Traffic Control Specialist (Direct Hire),Federal Aviation Administration,federal,usajobs,43727,165088,"Tomball, Texas",30.095804,-95.61709,,2025-10-03T00:00:00.0000,https://www.usajobs.gov:443/job/847375100,0.68,77382
FAA-FAA-26-PUB NOT-96466,Public Notice for Air Traffic Control Specialist (Direct Hire),Federal Aviation Administration,federal,usajobs,43727,165088,"Houston, Texas",29.76045,-95.36978,,2025-10-03T00:00:00.0000,https://www.usajobs.gov:443/job/847375100,0.41,77382
FAA-AHF-26-PUB NOT-96448,"PUBLIC NOTICE - Airway Transportation Systems Specialist (G- ENV, RAD, NAV, AUT, COM & F ENTRY)",Federal Aviation Administration,federal,usajobs,68863,82154,"South Houston, Texas",29.66493,-95.23931,,2025-10-03T00:00:00.0000,https://www.usajobs.gov:443/job/847375300,0.3,77382
FAA-AHF-26-PUB NOT-96448,"PUBLIC NOTICE - Airway Transportation Systems Specialist (G- ENV, RAD, NAV, AUT, COM & F ENTRY)",Federal Aviation Administration,federal,usajobs,68863,82154,"Spring, Texas",30.0845,-95.4193,,2025-10-03T00:00:00.0000,https://www.usajobs.gov:443/job/847375300,0.67,77382
FAA-AHF-26-PUB NOT-96448,"PUBLIC NOTICE - Airway Transportation Systems Specialist (G- ENV, RAD, NAV, AUT, COM & F ENTRY)",Federal Aviation Administration,federal,usajobs,68863,82154,"Tomball, Texas",30.095804,-95.61709,,2025-10-03T00:00:00.0000,https://www.usajobs.gov:443/job/847375300,0.68,77382
FAA-AHF-26-PUB NOT-96448,"PUBLIC NOTICE - Airway Transportation Systems Specialist (G- ENV, RAD, NAV, AUT, COM & F ENTRY)",Federal Aviation Administration,federal,usajobs,68863,82154,"Willis, Texas",30.424496,-95.4799,,2025-10-03T00:00:00.0000,https://www.usajobs.gov:443/job/847375300,0.62,77382
FAA-AHF-26-PUB NOT-96448,"PUBLIC NOTICE - Airway Transportation Systems Specialist (G- ENV, RAD, NAV, AUT, COM & F ENTRY)",Federal Aviation Administration,federal,usajobs,68863,82154,"Baytown, Texas",29.7284,-94.9969,,2025-10-03T00:00:00.0000,https://www.usajobs.gov:443/job/847375300,0.25,77382
FAA-AHF-26-PUB NOT-96448,"PUBLIC NOTICE - Airway Transportation Systems Specialist (G- ENV, RAD, NAV, AUT, COM & F ENTRY)",Federal Aviation Administration,federal,usajobs,68863,82154,"Conroe, Texas",30.31218,-95.45592,,2025-10-03T00:00:00.0000,https://www.usajobs.gov:443/job/847375300,0.7,77382
FAA-AHF-26-PUB NOT-96448,"PUBLIC NOTICE - Airway Transportation Systems Specialist (G- ENV, RAD, NAV, AUT, COM & F ENTRY)",Federal Aviation Administration,federal,usajobs,68863,82154,"Houston, Texas",29.76045,-95.36978,,2025-10-03T00:00:00.0000,https://www.usajobs.gov:443/job/847375300,0.41,77382
FAA-AHF-26-PUB NOT-96448,"PUBLIC NOTICE - Airway Transportation Systems Specialist (G- ENV, RAD, NAV, AUT, COM & F ENTRY)",Federal Aviation Administration,federal,usajobs,68863,82154,"Houston, Texas",29.76045,-95.36978,,2025-10-03T00:00:00.0000,https://www.usajobs.gov:443/job/847375300,0.41,77382
FAA-AHF-26-PUB NOT-96448,"PUBLIC NOTICE - Airway Transportation Systems Specialist (G- ENV, RAD, NAV, AUT, COM & F ENTRY)",Federal Aviation Administration,federal,usajobs,68863,82154,"Houston, Texas",29.76045,-95.36978,,2025-10-03T00:00:00.0000,https://www.usajobs.gov:443/job/847375300,0.41,77382
FAA-AHF-26-PUB NOT-96448,"PUBLIC NOTICE - Airway Transportation Systems Specialist (G- ENV, RAD, NAV, AUT, COM & F ENTRY)",Federal Aviation Administration,federal,usajobs,68863,82154,"Humble, Texas",30.000185,-95.26862,,2025-10-03T00:00:00.0000,https://www.usajobs.gov:443/job/847375300,0.55,77382
FAA-AHF-26-PUB NOT-96448,"PUBLIC NOTICE - Airway Transportation Systems Specialist (G- ENV, RAD, NAV, AUT, COM & F ENTRY)",Federal Aviation Administration,federal,usajobs,68863,82154,"Missouri City, Texas",29.607,-95.527,,2025-10-03T00:00:00.0000,https://www.usajobs.gov:443/job/847375300,0.3,77382
FAA-AHF-26-PUB NOT-96448,"PUBLIC NOTICE - Airway Transportation Systems Specialist (G- ENV, RAD, NAV, AUT, COM & F ENTRY)",Federal Aviation Administration,federal,usajobs,68863,82154,"Montgomery, Texas",30.389235,-95.69391,,2025-10-03T00:00:00.0000,https://www.usajobs.gov:443/job/847375300,0.61,77382
FAA-ATO-26-PUBNOT-96438,Air Traffic Control Specialist (Direct Hire Enhanced CTI Program/E-CTI),Federal Aviation Administration,federal,usajobs,46560,175785,"Tomball, Texas",30.095804,-95.61709,,2025-10-03T00:00:00.0000,https://www.usajobs.gov:443/job/847388600,0.68,77382
FAA-ATO-26-PUBNOT-96438,Air Traffic Control Specialist (Direct Hire Enhanced CTI Program/E-CTI),Federal Aviation Administration,federal,usajobs,46560,175785,"Houston, Texas",29.76045,-95.36978,,2025-10-03T00:00:00.0000,https://www.usajobs.gov:443/job/847388600,0.41,77382
CBST-12812373-26-MJH,Orthotist/Prosthetist - Advanced Practitioner,Veterans Health Administration,federal,usajobs,102203,132870,"Houston, Texas",29.76045,-95.36978,,2025-10-14T06:54:41.8130,https://www.usajobs.gov:443/job/848014400,0.41,77382
CBST-12824912-26-GM,Physician - Radiologist,Veterans Health Administration,federal,usajobs,310000,400000,"Houston, Texas",29.76045,-95.36978,,2025-10-27T00:00:00.0000,https://www.usajobs.gov:443/job/848871300,0.41,77382
CBST-12821735-26-KLD,Physician - Primary Care,Veterans Health Administration,federal,usajobs,220000,280000,"Houston, Texas",29.76045,-95.36978,,2025-10-27T00:00:00.0000,https://www.usajobs.gov:443/job/848871500,0.41,77382
CBST-12821591-26-KH,Physician - Psychiatrist,Veterans Health Administration,federal,usajobs,250000,315000,"Houston, Texas",29.76045,-95.36978,,2025-10-27T14:09:39.0000,https://www.usajobs.gov:443/job/848939200,0.41,77382
IHSC-BHP-HTX-O5-NS-2026,Behavioral Health Provider (O-5 Billet) Supervisory,Immigration and Customs Enforcement,federal,usajobs,1,150000,"Houston, Texas",29.76045,-95.36978,,2025-10-28T00:00:00.0000,https://www.usajobs.gov:443/job/848986100,0.41,77382
CBST-12807114-25-AGC,Physician- Hematologist/Oncologist,Veterans Health Administration,federal,usajobs,290000,350000,"Houston, Texas",29.76045,-95.36978,,2025-10-23T00:00:00.0000,https://www.usajobs.gov:443/job/849010300,0.41,77382
26-SDTX-12825984-AUSA,Assistant United States Attorney (Criminal),Executive Office for U.S. Attorneys and the Office of the U.S. Attorneys,federal,usajobs,85270,195100,"Houston, Texas",29.76045,-95.36978,,2025-11-03T00:00:00.0000,https://www.usajobs.gov:443/job/849365300,0.41,77382
26-SDTX-12825946-AUSA,Assistant United States Attorney - Criminal,Executive Office for U.S. Attorneys and the Office of the U.S. Attorneys,federal,usajobs,85270,195100,"Houston, Texas",29.76045,-95.36978,,2025-11-03T00:00:00.0000,https://www.usajobs.gov:443/job/849366900,0.41,77382
CBST-12820965-26-RV,Advanced Practice Nurse (Certified Nurse Anesthetist),Veterans Health Administration,federal,usajobs,180403,289400,"Houston, Texas",29.76045,-95.36978,,2025-11-05T00:00:00.0000,https://www.usajobs.gov:443/job/849483200,0.41,77382
CBST-12830774-26-EAG,Medical Supply Technician (Sterile Processing),Veterans Health Administration,federal,usajobs,36103,72998,"Houston, Texas",29.76045,-95.36978,,2025-11-06T13:49:53.4270,https://www.usajobs.gov:443/job/849671300,0.41,77382
CBST-12828846-26-RC,Medical Records Technician (Cancer Registrar),Veterans Health Administration,federal,usajobs,36825,107536,"Houston, Texas",29.76045,-95.36978,,2025-11-07T00:00:00.0000,https://www.usajobs.gov:443/job/849781600,0.41,77382
CBST-12824888-26-TB,Staff Psychologist,Veterans Health Administration,federal,usajobs,79585,197202,"Houston, Texas",29.76045,-95.36978,,2025-11-07T15:55:14.9930,https://www.usajobs.gov:443/job/849792100,0.41,77382
CBST-12832480-26-DB,Physician-Rheumatologist,Veterans Health Administration,federal,usajobs,230000,250000,"Houston, Texas",29.710297,-95.4007,,2025-11-17T00:00:00.0000,https://www.usajobs.gov:443/job/850186600,0.38,77382
ANM-AFX-26-1458045-96479,"Aviation Safety Inspector (GAO), Assistant Principal Operations Inspector (APOI)",Federal Aviation Administration,federal,usajobs,90025,117034,"Houston, Texas",29.76045,-95.36978,,2026-01-05T00:00:00.0000,https://www.usajobs.gov:443/job/850411300,0.41,77382
26-SDTX-12836351-AUSA,Assistant United States Attorney (Civil),Executive Office for U.S. Attorneys and the Office of the U.S. Attorneys,federal,usajobs,85270,195100,"Houston, Texas",29.76045,-95.36978,,2025-11-19T12:27:40.1800,https://www.usajobs.gov:443/job/850429500,0.41,77382
26-SDTX-12834816-AUSA,Assistant United States Attorney - Civil,Executive Office for U.S. Attorneys and the Office of the U.S. Attorneys,federal,usajobs,85270,195100,"Houston, Texas",29.76045,-95.36978,,2025-11-19T12:26:52.2370,https://www.usajobs.gov:443/job/850437600,0.41,77382
ANM-AFX-26-3114324-96480,Aviation Safety Inspector (Rotorcraft-Helicopter),Federal Aviation Administration,federal,usajobs,90025,117034,"Houston, Texas",29.76045,-95.36978,,2026-01-05T00:00:00.0000,https://www.usajobs.gov:443/job/851247600,0.41,77382
ANM-AFX-25-2510977-96422,"Aviation Safety Inspector (Operations), Aircrew Program Manager (APM)- Flight Program",Federal Aviation Administration,federal,usajobs,107446,139684,"Houston, Texas",29.76045,-95.36978,,2026-01-06T00:00:00.0000,https://www.usajobs.gov:443/job/851707700,0.41,77382
ANM-AFX-25-2511013-96421,"Aviation Safety Inspector (Operations), Aircrew Program Manager (APM)- Flight Program",Federal Aviation Administration,federal,usajobs,107446,139684,"Houston, Texas",29.76045,-95.36978,,2026-01-06T00:00:00.0000,https://www.usajobs.gov:443/job/851709400,0.41,77382
26-SDTX-12846084-AUSA,Assistant United States Attorney (Appellate),Executive Office for U.S. Attorneys and the Office of the U.S. Attorneys,federal,usajobs,85270,195100,"Houston, Texas",29.76045,-95.36978,,2025-12-05T14:49:51.4500,https://www.usajobs.gov:443/job/851762600,0.41,77382
CBST-12846931-26-KH,Physician-Radiologist/Telework Eligible with EDRP and Recruitment/Relocation Incentive,Veterans Health Administration,federal,usajobs,375000,400000,"Houston, Texas",29.76045,-95.36978,,2025-12-08T10:29:24.9270,https://www.usajobs.gov:443/job/851819600,0.41,77382
CBST-12847007-26-JB,Advanced Diagnostic Radiologic Technologist - Mammography,Veterans Health Administration,federal,usajobs,88253,114726,"Houston, Texas",29.76045,-95.36978,,2025-12-09T11:44:35.0500,https://www.usajobs.gov:443/job/851941700,0.41,77382
SES-12848997-26-FM,Assistant Director for Policy,Executive Office for Immigration Review,federal,usajobs,150160,225700,"Houston, Texas",29.76045,-95.36978,,2025-12-11T09:26:03.4030,https://www.usajobs.gov:443/job/852169400,0.41,77382
AAC-FAA-26-PUB NOT-96467,Public Notice for General Engineer (Direct Hire),Federal Aviation Administration,federal,usajobs,34454,162672,"South Houston, Texas",29.66493,-95.23931,,2025-12-12T00:00:00.0000,https://www.usajobs.gov:443/job/852270000,0.3,77382
AAC-FAA-26-PUB NOT-96467,Public Notice for General Engineer (Direct Hire),Federal Aviation Administration,federal,usajobs,34454,162672,"Spring, Texas",30.0845,-95.4193,,2025-12-12T00:00:00.0000,https://www.usajobs.gov:443/job/852270000,0.67,77382
AAC-FAA-26-PUB NOT-96467,Public Notice for General Engineer (Direct Hire),Federal Aviation Administration,federal,usajobs,34454,162672,"Tomball, Texas",30.095804,-95.61709,,2025-12-12T00:00:00.0000,https://www.usajobs.gov:443/job/852270000,0.68,77382
AAC-FAA-26-PUB NOT-96467,Public Notice for General Engineer (Direct Hire),Federal Aviation Administration,federal,usajobs,34454,162672,"Willis, Texas",30.424496,-95.4799,,2025-12-12T00:00:00.0000,https://www.usajobs.gov:443/job/852270000,0.62,77382
AAC-FAA-26-PUB NOT-96467,Public Notice for General Engineer (Direct Hire),Federal Aviation Administration,federal,usajobs,34454,162672,"Baytown, Texas",29.7284,-94.9969,,2025-12-12T00:00:00.0000,https://www.usajobs.gov:443/job/852270000,0.25,77382
AAC-FAA-26-PUB NOT-96467,Public Notice for General Engineer (Direct Hire),Federal Aviation Administration,federal,usajobs,34454,162672,"Conroe, Texas",30.31218,-95.45592,,2025-12-12T00:00:00.0000,https://www.usajobs.gov:443/job/852270000,0.7,77382
AAC-FAA-26-PUB NOT-96467,Public Notice for General Engineer (Direct Hire),Federal Aviation Administration,federal,usajobs,34454,162672,"Houston, Texas",29.76045,-95.36978,,2025-12-12T00:00:00.0000,https://www.usajobs.gov:443/job/852270000,0.41,77382
AAC-FAA-26-PUB NOT-96467,Public Notice for General Engineer (Direct Hire),Federal Aviation Administration,federal,usajobs,34454,162672,"Houston, Texas",29.76045,-95.36978,,2025-12-12T00:00:00.0000,https://www.usajobs.gov:443/job/852270000,0.41,77382
AAC-FAA-26-PUB NOT-96467,Public Notice for General Engineer (Direct Hire),Federal Aviation Administration,federal,usajobs,34454,162672,"Houston, Texas",29.76045,-95.36978,,2025-12-12T00:00:00.0000,https://www.usajobs.gov:443/job/852270000,0.41,77382
AAC-FAA-26-PUB NOT-96467,Public Notice for General Engineer (Direct Hire),Federal Aviation Administration,federal,usajobs,34454,162672,"Humble, Texas",30.000185,-95.26862,,2025-12-12T00:00:00.0000,https://www.usajobs.gov:443/job/852270000,0.55,77382
AAC-FAA-26-PUB NOT-96467,Public Notice for General Engineer (Direct Hire),Federal Aviation Administration,federal,usajobs,34454,162672,"Missouri City, Texas",29.607,-95.527,,2025-12-12T00:00:00.0000,https://www.usajobs.gov:443/job/852270000,0.3,77382
AAC-FAA-26-PUB NOT-96467,Public Notice for General Engineer (Direct Hire),Federal Aviation Administration,federal,usajobs,34454,162672,"Montgomery, Texas",30.389235,-95.69391,,2025-12-12T00:00:00.0000,https://www.usajobs.gov:443/job/852270000,0.61,77382
AAC-FAA-26-PUB NOT-96468,Public Notice for General Engineer (Direct Hire),Federal Aviation Administration,federal,usajobs,52998,172257,"South Houston, Texas",29.66493,-95.23931,,2025-12-12T00:00:00.0000,https://www.usajobs.gov:443/job/852270300,0.3,77382
AAC-FAA-26-PUB NOT-96468,Public Notice for General Engineer (Direct Hire),Federal Aviation Administration,federal,usajobs,52998,172257,"Spring, Texas",30.0845,-95.4193,,2025-12-12T00:00:00.0000,https://www.usajobs.gov:443/job/852270300,0.67,77382
AAC-FAA-26-PUB NOT-96468,Public Notice for General Engineer (Direct Hire),Federal Aviation Administration,federal,usajobs,52998,172257,"Tomball, Texas",30.095804,-95.61709,,2025-12-12T00:00:00.0000,https://www.usajobs.gov:443/job/852270300,0.68,77382
AAC-FAA-26-PUB NOT-96468,Public Notice for General Engineer (Direct Hire),Federal Aviation Administration,federal,usajobs,52998,172257,"Willis, Texas",30.424496,-95.4799,,2025-12-12T00:00:00.0000,https://www.usajobs.gov:443/job/852270300,0.62,77382
AAC-FAA-26-PUB NOT-96468,Public Notice for General Engineer (Direct Hire),Federal Aviation Administration,federal,usajobs,52998,172257,"Baytown, Texas",29.7284,-94.9969,,2025-12-12T00:00:00.0000,https://www.usajobs.gov:443/job/852270300,0.25,77382
AAC-FAA-26-PUB NOT-96468,Public Notice for General Engineer (Direct Hire),Federal Aviation Administration,federal,usajobs,52998,172257,"Conroe, Texas",30.31218,-95.45592,,2025-12-12T00:00:00.0000,https://www.usajobs.gov:443/job/852270300,0.7,77382
AAC-FAA-26-PUB NOT-96468,Public Notice for General Engineer (Direct Hire),Federal Aviation Administration,federal,usajobs,52998,172257,"Houston, Texas",29.76045,-95.36978,,2025-12-12T00:00:00.0000,https://www.usajobs.gov:443/job/852270300,0.41,77382
AAC-FAA-26-PUB NOT-96468,Public Notice for General Engineer (Direct Hire),Federal Aviation Administration,federal,usajobs,52998,172257,"Houston, Texas",29.76045,-95.36978,,2025-12-12T00:00:00.0000,https://www.usajobs.gov:443/job/852270300,0.41,77382
AAC-FAA-26-PUB NOT-96468,Public Notice for General Engineer (Direct Hire),Federal Aviation Administration,federal,usajobs,52998,172257,"Houston, Texas",29.76045,-95.36978,,2025-12-12T00:00:00.0000,https://www.usajobs.gov:443/job/852270300,0.41,77382
AAC-FAA-26-PUB NOT-96468,Public Notice for General Engineer (Direct Hire),Federal Aviation Administration,federal,usajobs,52998,172257,"Humble, Texas",30.000185,-95.26862,,2025-12-12T00:00:00.0000,https://www.usajobs.gov:443/job/852270300,0.55,77382
AAC-FAA-26-PUB NOT-96468,Public Notice for General Engineer (Direct Hire),Federal Aviation Administration,federal,usajobs,52998,172257,"Missouri City, Texas",29.607,-95.527,,2025-12-12T00:00:00.0000,https://www.usajobs.gov:443/job/852270300,0.3,77382
AAC-FAA-26-PUB NOT-96468,Public Notice for General Engineer (Direct Hire),Federal Aviation Administration,federal,usajobs,52998,172257,"Montgomery, Texas",30.389235,-95.69391,,2025-12-12T00:00:00.0000,https://www.usajobs.gov:443/job/852270300,0.61,77382
AAC-FAA-26-PUB NOT-96672,Public Notice for Aerospace Engineer (Direct Hire),Federal Aviation Administration,federal,usajobs,34454,162672,"South Houston, Texas",29.66493,-95.23931,,2025-12-12T00:00:00.0000,https://www.usajobs.gov:443/job/852272900,0.3,77382
AAC-FAA-26-PUB NOT-96672,Public Notice for Aerospace Engineer (Direct Hire),Federal Aviation Administration,federal,usajobs,34454,162672,"Spring, Texas",30.0845,-95.4193,,2025-12-12T00:00:00.0000,https://www.usajobs.gov:443/job/852272900,0.67,77382
AAC-FAA-26-PUB NOT-96672,Public Notice for Aerospace Engineer (Direct Hire),Federal Aviation Administration,federal,usajobs,34454,162672,"Tomball, Texas",30.095804,-95.61709,,2025-12-12T00:00:00.0000,https://www.usajobs.gov:443/job/852272900,0.68,77382
AAC-FAA-26-PUB NOT-96672,Public Notice for Aerospace Engineer (Direct Hire),Federal Aviation Administration,federal,usajobs,34454,162672,"Willis, Texas",30.424496,-95.4799,,2025-12-12T00:00:00.0000,https://www.usajobs.gov:443/job/852272900,0.62,77382
AAC-FAA-26-PUB NOT-96672,Public Notice for Aerospace Engineer (Direct Hire),Federal Aviation Administration,federal,usajobs,34454,162672,"Baytown, Texas",29.7284,-94.9969,,2025-12-12T00:00:00.0000,https://www.usajobs.gov:443/job/852272900,0.25,77382
AAC-FAA-26-PUB NOT-96672,Public Notice for Aerospace Engineer (Direct Hire),Federal Aviation Administration,federal,usajobs,34454,162672,"Conroe, Texas",30.31218,-95.45592,,2025-12-12T00:00:00.0000,https://www.usajobs.gov:443/job/852272900,0.7,77382
AAC-FAA-26-PUB NOT-96672,Public Notice for Aerospace Engineer (Direct Hire),Federal Aviation Administration,federal,usajobs,34454,162672,"Houston, Texas",29.76045,-95.36978,,2025-12-12T00:00:00.0000,https://www.usajobs.gov:443/job/852272900,0.41,77382
AAC-FAA-26-PUB NOT-96672,Public Notice for Aerospace Engineer (Direct Hire),Federal Aviation Administration,federal,usajobs,34454,162672,"Houston, Texas",29.76045,-95.36978,,2025-12-12T00:00:00.0000,https://www.usajobs.gov:443/job/852272900,0.41,77382
AAC-FAA-26-PUB NOT-96672,Public Notice for Aerospace Engineer (Direct Hire),Federal Aviation Administration,federal,usajobs,34454,162672,"Houston, Texas",29.76045,-95.36978,,2025-12-12T00:00:00.0000,https://www.usajobs.gov:443/job/852272900,0.41,77382
AAC-FAA-26-PUB NOT-96672,Public Notice for Aerospace Engineer (Direct Hire),Federal Aviation Administration,federal,usajobs,34454,162672,"Humble, Texas",30.000185,-95.26862,,2025-12-12T00:00:00.0000,https://www.usajobs.gov:443/job/852272900,0.55,77382
AAC-FAA-26-PUB NOT-96672,Public Notice for Aerospace Engineer (Direct Hire),Federal Aviation Administration,federal,usajobs,34454,162672,"Missouri City, Texas",29.607,-95.527,,2025-12-12T00:00:00.0000,https://www.usajobs.gov:443/job/852272900,0.3,77382
AAC-FAA-26-PUB NOT-96672,Public Notice for Aerospace Engineer (Direct Hire),Federal Aviation Administration,federal,usajobs,34454,162672,"Montgomery, Texas",30.389235,-95.69391,,2025-12-12T00:00:00.0000,https://www.usajobs.gov:443/job/852272900,0.61,77382
AAC-FAA-26-PUB NOT-96673,Public Notice for Aerospace Engineer (Direct Hire),Federal Aviation Administration,federal,usajobs,52998,172257,"South Houston, Texas",29.66493,-95.23931,,2025-12-12T00:00:00.0000,https://www.usajobs.gov:443/job/852274600,0.3,77382
AAC-FAA-26-PUB NOT-96673,Public Notice for Aerospace Engineer (Direct Hire),Federal Aviation Administration,federal,usajobs,52998,172257,"Spring, Texas",30.0845,-95.4193,,2025-12-12T00:00:00.0000,https://www.usajobs.gov:443/job/852274600,0.67,77382
AAC-FAA-26-PUB NOT-96673,Public Notice for Aerospace Engineer (Direct Hire),Federal Aviation Administration,federal,usajobs,52998,172257,"Tomball, Texas",30.095804,-95.61709,,2025-12-12T00:00:00.0000,https://www.usajobs.gov:443/job/852274600,0.68,77382
AAC-FAA-26-PUB NOT-96673,Public Notice for Aerospace Engineer (Direct Hire),Federal Aviation Administration,federal,usajobs,52998,172257,"Willis, Texas",30.424496,-95.4799,,2025-12-12T00:00:00.0000,https://www.usajobs.gov:443/job/852274600,0.62,77382
AAC-FAA-26-PUB NOT-96673,Public Notice for Aerospace Engineer (Direct Hire),Federal Aviation Administration,federal,usajobs,52998,172257,"Baytown, Texas",29.7284,-94.9969,,2025-12-12T00:00:00.0000,https://www.usajobs.gov:443/job/852274600,0.25,77382
AAC-FAA-26-PUB NOT-96673,Public Notice for Aerospace Engineer (Direct Hire),Federal Aviation Administration,federal,usajobs,52998,172257,"Conroe, Texas",30.31218,-95.45592,,2025-12-12T00:00:00.0000,https://www.usajobs.gov:443/job/852274600,0.7,77382
AAC-FAA-26-PUB NOT-96673,Public Notice for Aerospace Engineer (Direct Hire),Federal Aviation Administration,federal,usajobs,52998,172257,"Houston, Texas",29.76045,-95.36978,,2025-12-12T00:00:00.0000,https://www.usajobs.gov:443/job/852274600,0.41,77382
AAC-FAA-26-PUB NOT-96673,Public Notice for Aerospace Engineer (Direct Hire),Federal Aviation Administration,federal,usajobs,52998,172257,"Houston, Texas",29.76045,-95.36978,,2025-12-12T00:00:00.0000,https://www.usajobs.gov:443/job/852274600,0.41,77382
AAC-FAA-26-PUB NOT-96673,Public Notice for Aerospace Engineer (Direct Hire),Federal Aviation Administration,federal,usajobs,52998,172257,"Houston, Texas",29.76045,-95.36978,,2025-12-12T00:00:00.0000,https://www.usajobs.gov:443/job/852274600,0.41,77382
AAC-FAA-26-PUB NOT-96673,Public Notice for Aerospace Engineer (Direct Hire),Federal Aviation Administration,federal,usajobs,52998,172257,"Humble, Texas",30.000185,-95.26862,,2025-12-12T00:00:00.0000,https://www.usajobs.gov:443/job/852274600,0.55,77382
AAC-FAA-26-PUB NOT-96673,Public Notice for Aerospace Engineer (Direct Hire),Federal Aviation Administration,federal,usajobs,52998,172257,"Missouri City, Texas",29.607,-95.527,,2025-12-12T00:00:00.0000,https://www.usajobs.gov:443/job/852274600,0.3,77382
AAC-FAA-26-PUB NOT-96673,Public Notice for Aerospace Engineer (Direct Hire),Federal Aviation Administration,federal,usajobs,52998,172257,"Montgomery, Texas",30.389235,-95.69391,,2025-12-12T00:00:00.0000,https://www.usajobs.gov:443/job/852274600,0.61,77382
AAC-AFN-26-AMA230-96660,Aviation Safety Inspector  (GA Operations Instructor),Federal Aviation Administration,federal,usajobs,106382,138296,"Tomball, Texas",30.095804,-95.61709,,2025-12-16T00:00:00.0000,https://www.usajobs.gov:443/job/852480200,0.68,77382
AAC-AFN-26-AMA230-96660,Aviation Safety Inspector  (GA Operations Instructor),Federal Aviation Administration,federal,usajobs,106382,138296,"Bellville, Texas",29.951025,-96.2574,,2025-12-16T00:00:00.0000,https://www.usajobs.gov:443/job/852480200,0.23,77382
AAC-AFN-26-AMA230-96660,Aviation Safety Inspector  (GA Operations Instructor),Federal Aviation Administration,federal,usajobs,106382,138296,"Houston, Texas",29.76045,-95.36978,,2025-12-16T00:00:00.0000,https://www.usajobs.gov:443/job/852480200,0.41,77382
AAC-AFN-26-AMA230-96660,Aviation Safety Inspector  (GA Operations Instructor),Federal Aviation Administration,federal,usajobs,106382,138296,"Houston, Texas",29.76045,-95.36978,,2025-12-16T00:00:00.0000,https://www.usajobs.gov:443/job/852480200,0.41,77382
AAC-AFN-26-AMA230-96660,Aviation Safety Inspector  (GA Operations Instructor),Federal Aviation Administration,federal,usajobs,106382,138296,"New Caney, Texas",30.154835,-95.21347,,2025-12-16T00:00:00.0000,https://www.usajobs.gov:443/job/852480200,0.57,77382
AAC-AFN-26-AMA250-96665,Aviation Safety Inspector  (Airworthiness Instructor),Federal Aviation Administration,federal,usajobs,106382,138296,"Tomball, Texas",30.095804,-95.61709,,2025-12-16T00:00:00.0000,https://www.usajobs.gov:443/job/852481700,0.68,77382
AAC-AFN-26-AMA250-96665,Aviation Safety Inspector  (Airworthiness Instructor),Federal Aviation Administration,federal,usajobs,106382,138296,"Bellville, Texas",29.951025,-96.2574,,2025-12-16T00:00:00.0000,https://www.usajobs.gov:443/job/852481700,0.23,77382
AAC-AFN-26-AMA250-96665,Aviation Safety Inspector  (Airworthiness Instructor),Federal Aviation Administration,federal,usajobs,106382,138296,"Houston, Texas",29.76045,-95.36978,,2025-12-16T00:00:00.0000,https://www.usajobs.gov:443/job/852481700,0.41,77382
AAC-AFN-26-AMA250-96665,Aviation Safety Inspector  (Airworthiness Instructor),Federal Aviation Administration,federal,usajobs,106382,138296,"Houston, Texas",29.76045,-95.36978,,2025-12-16T00:00:00.0000,https://www.usajobs.gov:443/job/852481700,0.41,77382
AAC-AFN-26-AMA250-96665,Aviation Safety Inspector  (Airworthiness Instructor),Federal Aviation Administration,federal,usajobs,106382,138296,"New Caney, Texas",30.154835,-95.21347,,2025-12-16T00:00:00.0000,https://www.usajobs.gov:443/job/852481700,0.57,77382
AGL-AFX-26-0007-96623,Aviation Safety Inspector (Operations),Federal Aviation Administration,federal,usajobs,124531,195200,"Houston, Texas",29.76045,-95.36978,,2025-12-19T00:00:00.0000,https://www.usajobs.gov:443/job/852636100,0.41,77382
SH12854104,General Attorney,Social Security Administration,federal,usajobs,90025,138296,"Houston, Texas",29.76045,-95.36978,,2025-12-22T00:00:00.0000,https://www.usajobs.gov:443/job/852744900,0.41,77382
DE-12856595-26-SM,Trial Attorney (Civil Rights) - Open Continuous,Equal Employment Opportunity Commission,federal,usajobs,90025,138296,"Houston, Texas",29.76045,-95.36978,,2025-12-18T00:00:00.0000,https://www.usajobs.gov:443/job/852892800,0.41,77382
CBST-12855248-26-JR,Physician-Spinal Cord Injury (SCI) Executive,Veterans Health Administration,federal,usajobs,275000,350000,"Houston, Texas",29.76045,-95.36978,,2025-12-22T00:00:00.0000,https://www.usajobs.gov:443/job/853020300,0.41,77382
OPLA-ILPD-12857364-JP,General Attorney (Appellate),Immigration and Customs Enforcement,federal,usajobs,63795,139684,"Houston, Texas",29.76045,-95.36978,,2025-12-15T00:00:00.0000,https://www.usajobs.gov:443/job/853056900,0.41,77382
CBST-12855863-26-AMA,Clinical Laboratory Scientist,Veterans Health Administration,federal,usajobs,51215,129394,"Houston, Texas",29.710297,-95.4007,,2025-12-23T14:34:24.5430,https://www.usajobs.gov:443/job/853185900,0.38,77382
ACT-FAA-26-PUB NOT-96787,"Public Notice for General Inspection, Investigation, Enforcement, and Compliance (Direct Hire)",Federal Aviation Administration,federal,usajobs,52998,172257,"South Houston, Texas",29.66493,-95.23931,,2025-12-30T00:00:00.0000,https://www.usajobs.gov:443/job/853256200,0.3,77382
ACT-FAA-26-PUB NOT-96787,"Public Notice for General Inspection, Investigation, Enforcement, and Compliance (Direct Hire)",Federal Aviation Administration,federal,usajobs,52998,172257,"Spring, Texas",30.0845,-95.4193,,2025-12-30T00:00:00.0000,https://www.usajobs.gov:443/job/853256200,0.67,77382
ACT-FAA-26-PUB NOT-96787,"Public Notice for General Inspection, Investigation, Enforcement, and Compliance (Direct Hire)",Federal Aviation Administration,federal,usajobs,52998,172257,"Tomball, Texas",30.095804,-95.61709,,2025-12-30T00:00:00.0000,https://www.usajobs.gov:443/job/853256200,0.68,77382
ACT-FAA-26-PUB NOT-96787,"Public Notice for General Inspection, Investigation, Enforcement, and Compliance (Direct Hire)",Federal Aviation Administration,federal,usajobs,52998,172257,"Willis, Texas",30.424496,-95.4799,,2025-12-30T00:00:00.0000,https://www.usajobs.gov:443/job/853256200,0.62,77382
ACT-FAA-26-PUB NOT-96787,"Public Notice for General Inspection, Investigation, Enforcement, and Compliance (Direct Hire)",Federal Aviation Administration,federal,usajobs,52998,172257,"Baytown, Texas",29.7284,-94.9969,,2025-12-30T00:00:00.0000,https://www.usajobs.gov:443/job/853256200,0.25,77382
ACT-FAA-26-PUB NOT-96787,"Public Notice for General Inspection, Investigation, Enforcement, and Compliance (Direct Hire)",Federal Aviation Administration,federal,usajobs,52998,172257,"Conroe, Texas",30.31218,-95.45592,,2025-12-30T00:00:00.0000,https://www.usajobs.gov:443/job/853256200,0.7,77382
ACT-FAA-26-PUB NOT-96787,"Public Notice for General Inspection, Investigation, Enforcement, and Compliance (Direct Hire)",Federal Aviation Administration,federal,usajobs,52998,172257,"Houston, Texas",29.76045,-95.36978,,2025-12-30T00:00:00.0000,https://www.usajobs.gov:443/job/853256200,0.41,77382
ACT-FAA-26-PUB NOT-96787,"Public Notice for General Inspection, Investigation, Enforcement, and Compliance (Direct Hire)",Federal Aviation Administration,federal,usajobs,52998,172257,"Houston, Texas",29.76045,-95.36978,,2025-12-30T00:00:00.0000,https://www.usajobs.gov:443/job/853256200,0.41,77382
ACT-FAA-26-PUB NOT-96787,"Public Notice for General Inspection, Investigation, Enforcement, and Compliance (Direct Hire)",Federal Aviation Administration,federal,usajobs,52998,172257,"Houston, Texas",29.76045,-95.36978,,2025-12-30T00:00:00.0000,https://www.usajobs.gov:443/job/853256200,0.41,77382
ACT-FAA-26-PUB NOT-96787,"Public Notice for General Inspection, Investigation, Enforcement, and Compliance (Direct Hire)",Federal Aviation Administration,federal,usajobs,52998,172257,"Humble, Texas",30.000185,-95.26862,,2025-12-30T00:00:00.0000,https://www.usajobs.gov:443/job/853256200,0.55,77382
ACT-FAA-26-PUB NOT-96787,"Public Notice for General Inspection, Investigation, Enforcement, and Compliance (Direct Hire)",Federal Aviation Administration,federal,usajobs,52998,172257,"Missouri City, Texas",29.607,-95.527,,2025-12-30T00:00:00.0000,https://www.usajobs.gov:443/job/853256200,0.3,77382
ACT-FAA-26-PUB NOT-96787,"Public Notice for General Inspection, Investigation, Enforcement, and Compliance (Direct Hire)",Federal Aviation Administration,federal,usajobs,52998,172257,"Montgomery, Texas",30.389235,-95.69391,,2025-12-30T00:00:00.0000,https://www.usajobs.gov:443/job/853256200,0.61,77382
CBPO DH 26-4,Customs and Border Protection Officer,Customs and Border Protection,federal,usajobs,40332,109952,"Houston, Texas",29.76045,-95.36978,,2026-01-01T00:00:00.0000,https://www.usajobs.gov:443/job/853256800,0.41,77382
ACT-FAA-26-PUB NOT-96795,"Public Notice for General Inspection, Investigation, Enforcement, and Compliance (Direct Hire)",Federal Aviation Administration,federal,usajobs,34454,162672,"South Houston, Texas",29.66493,-95.23931,,2025-12-30T00:00:00.0000,https://www.usajobs.gov:443/job/853257300,0.3,77382
ACT-FAA-26-PUB NOT-96795,"Public Notice for General Inspection, Investigation, Enforcement, and Compliance (Direct Hire)",Federal Aviation Administration,federal,usajobs,34454,162672,"Spring, Texas",30.0845,-95.4193,,2025-12-30T00:00:00.0000,https://www.usajobs.gov:443/job/853257300,0.67,77382
ACT-FAA-26-PUB NOT-96795,"Public Notice for General Inspection, Investigation, Enforcement, and Compliance (Direct Hire)",Federal Aviation Administration,federal,usajobs,34454,162672,"Tomball, Texas",30.095804,-95.61709,,2025-12-30T00:00:00.0000,https://www.usajobs.gov:443/job/853257300,0.68,77382
ACT-FAA-26-PUB NOT-96795,"Public Notice for General Inspection, Investigation, Enforcement, and Compliance (Direct Hire)",Federal Aviation Administration,federal,usajobs,34454,162672,"Willis, Texas",30.424496,-95.4799,,2025-12-30T00:00:00.0000,https://www.usajobs.gov:443/job/853257300,0.62,77382
ACT-FAA-26-PUB NOT-96795,"Public Notice for General Inspection, Investigation, Enforcement, and Compliance (Direct Hire)",Federal Aviation Administration,federal,usajobs,34454,162672,"Baytown, Texas",29.7284,-94.9969,,2025-12-30T00:00:00.0000,https://www.usajobs.gov:443/job/853257300,0.25,77382
ACT-FAA-26-PUB NOT-96795,"Public Notice for General Inspection, Investigation, Enforcement, and Compliance (Direct Hire)",Federal Aviation Administration,federal,usajobs,34454,162672,"Conroe, Texas",30.31218,-95.45592,,2025-12-30T00:00:00.0000,https://www.usajobs.gov:443/job/853257300,0.7,77382
ACT-FAA-26-PUB NOT-96795,"Public Notice for General Inspection, Investigation, Enforcement, and Compliance (Direct Hire)",Federal Aviation Administration,federal,usajobs,34454,162672,"Houston, Texas",29.76045,-95.36978,,2025-12-30T00:00:00.0000,https://www.usajobs.gov:443/job/853257300,0.41,77382
ACT-FAA-26-PUB NOT-96795,"Public Notice for General Inspection, Investigation, Enforcement, and Compliance (Direct Hire)",Federal Aviation Administration,federal,usajobs,34454,162672,"Houston, Texas",29.76045,-95.36978,,2025-12-30T00:00:00.0000,https://www.usajobs.gov:443/job/853257300,0.41,77382
ACT-FAA-26-PUB NOT-96795,"Public Notice for General Inspection, Investigation, Enforcement, and Compliance (Direct Hire)",Federal Aviation Administration,federal,usajobs,34454,162672,"Houston, Texas",29.76045,-95.36978,,2025-12-30T00:00:00.0000,https://www.usajobs.gov:443/job/853257300,0.41,77382
ACT-FAA-26-PUB NOT-96795,"Public Notice for General Inspection, Investigation, Enforcement, and Compliance (Direct Hire)",Federal Aviation Administration,federal,usajobs,34454,162672,"Humble, Texas",30.000185,-95.26862,,2025-12-30T00:00:00.0000,https://www.usajobs.gov:443/job/853257300,0.55,77382
ACT-FAA-26-PUB NOT-96795,"Public Notice for General Inspection, Investigation, Enforcement, and Compliance (Direct Hire)",Federal Aviation Administration,federal,usajobs,34454,162672,"Missouri City, Texas",29.607,-95.527,,2025-12-30T00:00:00.0000,https://www.usajobs.gov:443/job/853257300,0.3,77382
ACT-FAA-26-PUB NOT-96795,"Public Notice for General Inspection, Investigation, Enforcement, and Compliance (Direct Hire)",Federal Aviation Administration,federal,usajobs,34454,162672,"Montgomery, Texas",30.389235,-95.69391,,2025-12-30T00:00:00.0000,https://www.usajobs.gov:443/job/853257300,0.61,77382
CBPO DH GS9 26-4,Customs and Border Protection Officer,Customs and Border Protection,federal,usajobs,61111,124443,"Houston, Texas",29.76045,-95.36978,,2026-01-01T00:00:00.0000,https://www.usajobs.gov:443/job/853257600,0.41,77382
COU-12858461-CIS PJN CLD,GENERAL ATTORNEY,Citizenship and Immigration Services,federal,usajobs,121534,186700,"Houston, Texas",29.76045,-95.36978,,2025-12-29T14:36:53.3800,https://www.usajobs.gov:443/job/853267700,0.41,77382
CBST-12836496-26-JD,Physician- Deputy Associate Chief of Staff (Research-Clinical),Veterans Health Administration,federal,usajobs,200000,400000,"Houston, Texas",29.76045,-95.36978,,2025-12-30T00:00:00.0000,https://www.usajobs.gov:443/job/853276400,0.41,77382
AEA-AFS-26-CCD-96802,Supervisory Aviation Safety Inspector (Front Line Manager),Federal Aviation Administration,federal,usajobs,94544,146571,"Tomball, Texas",30.095804,-95.61709,,2025-12-30T00:00:00.0000,https://www.usajobs.gov:443/job/853290600,0.68,77382
AEA-AFS-26-CCD-96802,Supervisory Aviation Safety Inspector (Front Line Manager),Federal Aviation Administration,federal,usajobs,94544,146571,"Bellville, Texas",29.951025,-96.2574,,2025-12-30T00:00:00.0000,https://www.usajobs.gov:443/job/853290600,0.23,77382
AEA-AFS-26-CCD-96802,Supervisory Aviation Safety Inspector (Front Line Manager),Federal Aviation Administration,federal,usajobs,94544,146571,"Houston, Texas",29.76045,-95.36978,,2025-12-30T00:00:00.0000,https://www.usajobs.gov:443/job/853290600,0.41,77382
AEA-AFS-26-CCD-96802,Supervisory Aviation Safety Inspector (Front Line Manager),Federal Aviation Administration,federal,usajobs,94544,146571,"Houston, Texas",29.76045,-95.36978,,2025-12-30T00:00:00.0000,https://www.usajobs.gov:443/job/853290600,0.41,77382
AEA-AFS-26-CCD-96802,Supervisory Aviation Safety Inspector (Front Line Manager),Federal Aviation Administration,federal,usajobs,94544,146571,"New Caney, Texas",30.154835,-95.21347,,2025-12-30T00:00:00.0000,https://www.usajobs.gov:443/job/853290600,0.57,77382
CBST-12849244-26-MJH,Supervisory Medical Supply Technician (Sterile Processing),Veterans Health Administration,federal,usajobs,69106,89845,"Houston, Texas",29.76045,-95.36978,,2025-12-31T00:00:00.0000,https://www.usajobs.gov:443/job/853322600,0.41,77382
AEA-FS-26-SLF-96785,"Aviation Safety Inspector (Airworthiness), ACV, Geographic Program Inspector",Federal Aviation Administration,federal,usajobs,90925,118204,"Houston, Texas",29.76045,-95.36978,,2025-12-31T00:00:00.0000,https://www.usajobs.gov:443/job/853365000,0.41,77382
IJ-12858945-26-MS,Immigration Judge,Executive Office for Immigration Review,federal,usajobs,159951,207500,"Conroe, Texas",30.31218,-95.45592,,2025-12-30T16:39:59.3770,https://www.usajobs.gov:443/job/853381500,0.7,77382
IJ-12858945-26-MS,Immigration Judge,Executive Office for Immigration Review,federal,usajobs,159951,207500,"Houston, Texas",29.76045,-95.36978,,2025-12-30T16:39:59.3770,https://www.usajobs.gov:443/job/853381500,0.41,77382
IJ-12858945-26-MS,Immigration Judge,Executive Office for Immigration Review,federal,usajobs,159951,207500,"Houston, Texas",29.76045,-95.36978,,2025-12-30T16:39:59.3770,https://www.usajobs.gov:443/job/853381500,0.41,77382
IJ-12858945-26-MS,Immigration Judge,Executive Office for Immigration Review,federal,usajobs,159951,207500,"Houston, Texas",29.76045,-95.36978,,2025-12-30T16:39:59.3770,https://www.usajobs.gov:443/job/853381500,0.41,77382
CBST-12857133-26-AMA,Lead Clinical Laboratory Scientist,Veterans Health Administration,federal,usajobs,119305,155103,"Houston, Texas",29.76045,-95.36978,,2025-12-31T10:04:02.3570,https://www.usajobs.gov:443/job/853405100,0.41,77382
CA-2026-0042,Project Manager,Department of State - Agency Wide,federal,usajobs,107446,139684,"Houston, Texas",29.76045,-95.36978,,2025-12-31T14:14:41.6800,https://www.usajobs.gov:443/job/853443100,0.41,77382
CBST-12855276-26-AM,Registered Nurse - Chief Nurse for Research,Veterans Health Administration,federal,usajobs,188328,225700,"Houston, Texas",29.76045,-95.36978,,2025-12-31T14:48:16.6030,https://www.usajobs.gov:443/job/853447900,0.41,77382
CBST-12855651-26-JB,Occupational Therapist,Veterans Health Administration,federal,usajobs,70477,132870,"Houston, Texas",29.76045,-95.36978,,2026-01-02T15:31:06.8300,https://www.usajobs.gov:443/job/853500300,0.41,77382
CBST-12854724-26-SAL,Medical Administration Specialist - Health Administrative Specialist on Duty (HOD),Veterans Health Administration,federal,usajobs,70477,91618,"Houston, Texas",29.76045,-95.36978,,2026-01-03T00:00:00.0000,https://www.usajobs.gov:443/job/853508300,0.41,77382
ANM-AFX-26-SAG-96475,Aviation Safety Inspector (Rotorcraft/Helicopter),Federal Aviation Administration,federal,usajobs,106382,138296,"Houston, Texas",29.76045,-95.36978,,2026-01-06T00:00:00.0000,https://www.usajobs.gov:443/job/853536900,0.41,77382
IHSC-RN-HTX-O3-NS-2026,Registered Nurse (O-3 Billet) Non-Supervisory,Immigration and Customs Enforcement,federal,usajobs,1,150000,"Houston, Texas",29.76045,-95.36978,,2026-01-06T00:00:00.0000,https://www.usajobs.gov:443/job/853553300,0.41,77382
26-SDTX-12854289-MP,Paralegal Specialist,Executive Office for U.S. Attorneys and the Office of the U.S. Attorneys,federal,usajobs,70477,110846,"Houston, Texas",29.76045,-95.36978,,2026-01-05T12:59:34.3430,https://www.usajobs.gov:443/job/853559700,0.41,77382
26-SDTX-12855940-MP,Human Resources Assistant (OA),Executive Office for U.S. Attorneys and the Office of the U.S. Attorneys,federal,usajobs,38407,55486,"Houston, Texas",29.76045,-95.36978,,2026-01-05T14:46:21.7200,https://www.usajobs.gov:443/job/853580600,0.41,77382
IHSC-FMC-EPAOR-O5-NS-2026,Field Medical Coordinator (O-5 Billet) Non-Supervisory (El Paso AOR),Immigration and Customs Enforcement,federal,usajobs,1,150000,"Houston, Texas",29.76045,-95.36978,,2026-01-07T00:00:00.0000,https://www.usajobs.gov:443/job/853691800,0.41,77382
DLAEnergy-26-12861034-MP,Lead Customer Relationship Specialist,Defense Logistics Agency,federal,usajobs,122749,159575,"Houston, Texas",29.76045,-95.36978,,2026-01-06T14:50:38.8730,https://www.usajobs.gov:443/job/853698700,0.41,77382
CBST-12856146-26-JW,Health Technician,Veterans Health Administration,federal,usajobs,51849,67401,"Houston, Texas",29.76045,-95.36978,,2026-01-08T00:00:00.0000,https://www.usajobs.gov:443/job/853721000,0.41,77382
IHSC-FMC-DAOR-O5-NS-2026,Field Medical Coordinator (O-5 Billet) Non-Supervisory (Dallas AOR),Immigration and Customs Enforcement,federal,usajobs,1,150000,"Conroe, Texas",30.31218,-95.45592,,2026-01-08T00:00:00.0000,https://www.usajobs.gov:443/job/853809200,0.7,77382
IHSC-FMC-DAOR-O5-NS-2026,Field Medical Coordinator (O-5 Billet) Non-Supervisory (Dallas AOR),Immigration and Customs Enforcement,federal,usajobs,1,150000,"Houston, Texas",29.76045,-95.36978,,2026-01-08T00:00:00.0000,https://www.usajobs.gov:443/job/853809200,0.41,77382
CBST-12857504-26-JB,Cytotechnologist,Veterans Health Administration,federal,usajobs,86123,111966,"Houston, Texas",29.76045,-95.36978,,2026-01-08T00:00:00.0000,https://www.usajobs.gov:443/job/853813300,0.41,77382
CBST-12857449-26-JB,Clinical Laboratory Scientist,Veterans Health Administration,federal,usajobs,67258,129394,"Houston, Texas",29.76045,-95.36978,,2026-01-08T00:00:00.0000,https://www.usajobs.gov:443/job/853815500,0.41,77382
CBST-12857328-26-JB,Clinical Laboratory Scientist - Microbiology,Veterans Health Administration,federal,usajobs,67258,129394,"Houston, Texas",29.76045,-95.36978,,2026-01-08T00:00:00.0000,https://www.usajobs.gov:443/job/853816800,0.41,77382
CBST-12861908-26-RCM,Staff Psychologist- Community Resource and Referral Center,Veterans Health Administration,federal,usajobs,106114,196617,"Houston, Texas",29.76045,-95.36978,,2026-01-07T16:06:30.8300,https://www.usajobs.gov:443/job/853825800,0.41,77382
AWA-ARP-26-8298BR-96871,Airport Certification and Safety Inspector,Federal Aviation Administration,federal,usajobs,94544,146571,"Tomball, Texas",30.095804,-95.61709,,2026-01-08T00:00:00.0000,https://www.usajobs.gov:443/job/853850900,0.68,77382
AWA-ARP-26-8298BR-96871,Airport Certification and Safety Inspector,Federal Aviation Administration,federal,usajobs,94544,146571,"Bellville, Texas",29.951025,-96.2574,,2026-01-08T00:00:00.0000,https://www.usajobs.gov:443/job/853850900,0.23,77382
AWA-ARP-26-8298BR-96871,Airport Certification and Safety Inspector,Federal Aviation Administration,federal,usajobs,94544,146571,"Houston, Texas",29.76045,-95.36978,,2026-01-08T00:00:00.0000,https://www.usajobs.gov:443/job/853850900,0.41,77382
AWA-ARP-26-8298BR-96871,Airport Certification and Safety Inspector,Federal Aviation Administration,federal,usajobs,94544,146571,"Houston, Texas",29.76045,-95.36978,,2026-01-08T00:00:00.0000,https://www.usajobs.gov:443/job/853850900,0.41,77382
AWA-ARP-26-8298BR-96871,Airport Certification and Safety Inspector,Federal Aviation Administration,federal,usajobs,94544,146571,"New Caney, Texas",30.154835,-95.21347,,2026-01-08T00:00:00.0000,https://www.usajobs.gov:443/job/853850900,0.57,77382
26-TXS-12860386,Security Specialist,Executive Office for U.S. Attorneys and the Office of the U.S. Attorneys,federal,usajobs,86123,134195,"Houston, Texas",29.76045,-95.36978,,2026-01-08T09:04:40.1600,https://www.usajobs.gov:443/job/853880300,0.41,77382
